[
  {
    "id": 1,
    "name": "Bike Masters",
    "address": "5265 N 129th Street",
    "city": "Omaha",
    "state": "NE",
    "zip": "68154",
    "phone": "402-964-1080",
    "url": "http://bikemasterscycling.com",
    "email": "bikemasters2000@gmail.com",
    "latitude": "41.306243",
    "longitude": "-96.114573"
  },
  {
    "id": 4,
    "name": "Cycle Works",
    "address": "720 N 27th St",
    "city": "Lincoln",
    "state": "NE",
    "zip": "68503",
    "phone": "402-475-2453",
    "url": "http://cycleworksusa.com",
    "email": "info@cycleworksusa.com",
    "latitude": "40.820161",
    "longitude": "-96.682219"
  },
  {
    "id": 7,
    "name": "Endless Trail Bike Shop",
    "address": "15 S 23rd St",
    "city": "Council Bluffs",
    "state": "IA",
    "zip": "51501",
    "phone": "712-322-9760",
    "url": "http://endlesstrailbikeshop.com",
    "email": "endlesstrail@cox.net",
    "latitude": "41.2614924",
    "longitude": "-95.87801389999998"
  },
  {
    "id": 6,
    "name": "Ferguson's Bike Shop",
    "address": "2602 Leavenworth St",
    "city": "Omaha",
    "state": "NE",
    "zip": "68105",
    "phone": "402-315-8997",
    "url": "http://www.fergusonsbikeshop.com",
    "email": "nfo@fergusonsbikeshop.com",
    "latitude": "41.252601",
    "longitude": "-95.950926"
  },
  {
    "id": 8,
    "name": "Fleet Feet Running",
    "address": "17660 Wright St",
    "city": "Omaha",
    "state": "NE",
    "zip": "68130",
    "phone": "402-884-8800",
    "url": "https://www.fleetfeet.com/s/omaha/locations/omaha-legacy",
    "email": "none",
    "latitude": "41.2336119",
    "longitude": "-96.1911711"
  },
  {
    "id": 14,
    "name": "Goodlife Cyclery",
    "address": "5900 S 85th St",
    "city": "Lincoln",
    "state": "NE",
    "zip": "68526",
    "phone": "402-875-2364",
    "url": "https://goodlifecyclery.com",
    "email": "Support@goodlifecyclery.com",
    "latitude": "40.7625326",
    "longitude": "-96.6053527"
  },
  {
    "id": 11,
    "name": "GreenStreet Cycles",
    "address": "2111 South 67 Street",
    "city": "Omaha",
    "state": "NE",
    "zip": "68106",
    "phone": "402-502-3696",
    "url": "http://greenstreetcycles.com",
    "email": "none",
    "latitude": "41.239679",
    "longitude": "-96.014538"
  },
  {
    "id": 12,
    "name": "Monkey Wrench Cycles",
    "address": "233 North 19th Street Ste A",
    "city": "Lincoln",
    "state": "NE",
    "zip": "68503",
    "phone": "402-477-4104",
    "url": "https://monkeywrenchcycles.com",
    "email": "none",
    "latitude": "40.815479",
    "longitude": "-96.694475"
  },
  {
    "id": 5,
    "name": "Re-Cycle Bike Shop",
    "address": "4701 Center St",
    "city": "Omaha",
    "state": "NE",
    "zip": "68106",
    "phone": "402-344-7253",
    "url": "http://recyclebikeshop.net",
    "email": "recyclebikeshop@earthlink.net",
    "latitude": "41.24125",
    "longitude": "-95.9845"
  },
  {
    "id": 3,
    "name": "The Bike Way",
    "address": "15115 Industrial Road",
    "city": "Omaha",
    "state": "NE",
    "zip": "68144",
    "phone": "402-392-2390",
    "url": "http://thebikeway.com",
    "email": "none",
    "latitude": "41.231596",
    "longitude": "-96.14994"
  },
  {
    "id": 2,
    "name": "Trek Bicycle Omaha West",
    "address": "14510 Eagle Run Dr",
    "city": "Omaha",
    "state": "NE",
    "zip": "68116",
    "phone": "402-333-1031",
    "url": "https://www.trekbikes.com/us/en_US/retail/omaha_west/?gad_source=1&gclid=Cj0KCQiAyeWrBhDDARIsAGP1mWQCdtAX5GU7pGmULXKzZK_hYynKcYufTMF_M50x370BanivXnWKuz4aAtO-EALw_wcB",
    "email": "none",
    "latitude": "41.288017",
    "longitude": "-96.140782"
  },
  {
    "id": 10,
    "name": "Trek Store Midtown",
    "address": "7214 Jones St",
    "city": "Omaha",
    "state": "NE",
    "zip": "68114",
    "phone": "402-884-1820",
    "url": "http://trekbicyclestores.com",
    "email": "info@highgearomaha.com",
    "latitude": "41.2546682",
    "longitude": "-96.0247458"
  },
  {
    "id": 13,
    "name": "Used Bike Shop",
    "address": "1541 N Cotner Blvd",
    "city": "Lincoln",
    "state": "NE",
    "zip": "68505",
    "phone": "402-464-5110",
    "url": "https://www.theusedbikeshop.com",
    "email": "none",
    "latitude": "40.828378",
    "longitude": "-96.630336"
  },
  {
    "id": 9,
    "name": "Wheelie Good Bike Shop",
    "address": "5633 S 16th St ",
    "city": "Lincoln",
    "state": "NE",
    "zip": "68512",
    "phone": "402-261-8854",
    "url": "https://www.wheeliegoodbikeshop.com",
    "email": "hello@wgbikeshop.com",
    "latitude": "40.7563011",
    "longitude": "-96.7011424"
  },
  {
    "id": 15,
    "name": "Xtreme Wheels Bike and Sport",
    "address": "33 S Main St",
    "city": "Council Bluffs",
    "state": "IA",
    "zip": "51503",
    "phone": "712-388-0800",
    "url": "https://xtremewheels.com",
    "email": "none",
    "latitude": "41.2604039",
    "longitude": "-95.8497433"
  },
  {
    "id": 50,
    "name": "Store_Papillion",
    "address": "Walnut Creek",
    "city": "Papillion",
    "state": "NE",
    "zip": "68046",
    "phone": "402-123-4567",
    "url": "http://crom.mobi",
    "email": "someone@xzy.com",
    "latitude": "41.1456424",
    "longitude": "-96.0678436"
  }
]
