[
  {
    "id": 14,
    "name": "Big Elk Lake",
    "address": "108th St and Cornhusker Rd",
    "city": "Papillion",
    "state": "NE",
    "zip": "68046",
    "length": 1,
    "level": "Beginner",
    "type": "Trail",
    "url": "https://www.papillion.org/",
    "latitude": 41.161679,
    "longitude": -96.100419
  },
  {
    "id": 7,
    "name": "Calvin Crest",
    "address": "2870 County Road 13",
    "city": "Fremont",
    "state": "NE",
    "zip": "68035",
    "length": 1.5,
    "level": "intermediate",
    "type": "SingleTrack",
    "url": "https://www.trailforks.com/region/calvin-crest-camp/",
    "latitude": 41.4189922,
    "longitude": -96.54431
  },
  {
    "id": 10,
    "name": "Homestead Trail",
    "address": "2000 Saltillo Rd",
    "city": "Roca",
    "state": "NE",
    "zip": "68430",
    "length": 60,
    "level": "Beginner",
    "type": "Trail",
    "url": "https://www.gptn.org/the_trails/homestead_trail.html",
    "latitude": 40.697314,
    "longitude": -96.693525
  },
  {
    "id": 1,
    "name": "Jewell Park",
    "address": "Harvell Dr and Park Ave NE",
    "city": "Bellevue",
    "state": "NE",
    "zip": "68005",
    "length": 3.5,
    "level": "intermediate",
    "type": "SingleTrack",
    "url": "https://www.trailforks.com/trails",
    "latitude": 41.15225901,
    "longitude": -95.89450836
  },
  {
    "id": 8,
    "name": "Lake Manawa",
    "address": "1100 S Shore Dr",
    "city": "Council Bluffs",
    "state": "IA",
    "zip": "51501",
    "length": 6,
    "level": "intermediate",
    "type": "SingleTrack",
    "url": "https://www.trailforks.com/region/lake-manawa-19962/",
    "latitude": 41.2138046,
    "longitude": -95.8508239
  },
  {
    "id": 2,
    "name": "Lewis & Clark",
    "address": "19544 Monument Rd",
    "city": "Council Bluffs",
    "state": "IA",
    "zip": "51503",
    "length": 5,
    "level": "Advance",
    "type": "SingleTrack",
    "url": "https://www.trailforks.com/region/lewis--clark-monument-park/",
    "latitude": 41.30308692,
    "longitude": -95.85777283
  },
  {
    "id": 15,
    "name": "Mandan Park",
    "address": "6215 South 13th Street",
    "city": "Omaha",
    "state": "NE",
    "zip": "68107",
    "length": 4,
    "level": "intermediate",
    "type": "SingleTrack",
    "url": "https://www.trailforks.com/region/mandan-park/",
    "latitude": 41.196441,
    "longitude": -95.933483
  },
  {
    "id": 11,
    "name": "Mopac East Trail",
    "address": "84th and O Street",
    "city": "Lincoln",
    "state": "NE",
    "zip": "68510",
    "length": 22,
    "level": "Beginner",
    "type": "Trail",
    "url": "None",
    "latitude": 40.813376,
    "longitude": -96.605953
  },
  {
    "id": 3,
    "name": "Platte River",
    "address": "14499 346th Street",
    "city": "Louisville",
    "state": "NE",
    "zip": "68037",
    "length": 12,
    "level": "Advance",
    "type": "SingleTrack",
    "url": "https://www.trailforks.com/region/platte-river-state-park/",
    "latitude": 40.98777043,
    "longitude": -96.21564388
  },
  {
    "id": 16,
    "name": "Portal Recreation Area",
    "address": "12033 Valley Ridge Dr",
    "city": "La Vista",
    "state": "NE",
    "zip": "68138",
    "length": 1.75,
    "level": "Beginner",
    "type": "Trail",
    "url": "https://www.papillion.org/Facilities/Facility/Details/Portal-Recreation-Area-38",
    "latitude": 41.163348,
    "longitude": -96.10023
  },
  {
    "id": 13,
    "name": "Prairie Queen Trail",
    "address": "Hiway 370 and 132nd Street",
    "city": "Papillion",
    "state": "NE",
    "zip": "68046",
    "length": 4,
    "level": "Beginner",
    "type": "Trail",
    "url": "https://www.papionrd.org/recreation-wildlife/",
    "latitude": 41.1496567,
    "longitude": -96.1185717
  },
  {
    "id": 4,
    "name": "Swanson",
    "address": "3210 Cornhusker Rd",
    "city": "Bellevue",
    "state": "NE",
    "zip": "68123",
    "length": 5,
    "level": "Beginner",
    "type": "SingleTrack",
    "url": "https://www.trailforks.com/region/swanson-park/",
    "latitude": 41.16222702,
    "longitude": -95.96051216
  },
  {
    "id": 5,
    "name": "Tranquility",
    "address": "12255 Fort St",
    "city": "Omaha",
    "state": "NE",
    "zip": "68164",
    "length": 6,
    "level": "intermediate",
    "type": "SingleTrack",
    "url": "https://www.trailforks.com/region/tranquility-park/",
    "latitude": 41.30157166,
    "longitude": -96.10603809
  },
  {
    "id": 9,
    "name": "Walnut Creek",
    "address": "Hiway 370 and 96th Street",
    "city": "Papillion",
    "state": "NE",
    "zip": "68046",
    "length": 4,
    "level": "intermediate",
    "type": "SingleTrack",
    "url": "https://www.trailforks.com/region/walnut-creek-1502810426/",
    "latitude": 41.1447721,
    "longitude": -96.0636299
  },
  {
    "id": 12,
    "name": "Wilderness Park",
    "address": "4798 S 1st St",
    "city": "Lincoln",
    "state": "NE",
    "zip": "68512",
    "length": 18,
    "level": "intermediate",
    "type": "SingleTrack",
    "url": "https://www.lincoln.ne.gov/City/Departments/Parks-and-Recreation/Parks-Facilities/Parks-A-to-Z/Wilderness-Park",
    "latitude": 40.75574,
    "longitude": -96.720642
  },
  {
    "id": 50,
    "name": "Allan Paul Hull",
    "address": "Walnut Creek",
    "city": "Papillion",
    "state": "NE",
    "zip": "68046",
    "length": 18,
    "level": "Beginner",
    "type": "MTB",
    "url": "http://crom.mobi",
    "latitude": 41.1456424,
    "longitude": -96.0678436
  }
]
